%  GPST       latitude(deg) longitude(deg)  height(m)   Q  ns   sdn(m)   sde(m)   sdu(m)  sdne(m)  sdeu(m)  sdun(m) age(s)  ratio
1939 182101   30.494682344  114.532795069   116.0421   2   5   3.4986   2.9837  11.0515  -1.1070   3.2405  -5.4769  -0.00    0.0
1939 182102   30.494681792  114.532795678   116.3281   2   5   2.5689   2.1953   8.1205  -0.7551   2.3107  -4.0240  -0.00    0.0
1939 182103   30.494681621  114.532795520   116.4378   2   5   2.1257   1.8180   6.7212  -0.6061   1.8903  -3.3306  -0.00    0.0
1939 182104   30.494681340  114.532794702   116.5469   2   5   1.8536   1.5859   5.8615  -0.5198   1.6383  -2.9045  -0.00    0.0
1939 182105   30.494681382  114.532794133   116.5054   2   5   1.6648   1.4248   5.2650  -0.4621   1.4660  -2.6090  -0.00    0.0
1939 182106   30.494681474  114.532793798   116.3449   2   5   1.5241   1.3045   4.8200  -0.4201   1.3388  -2.3885  -0.00    0.0
1939 182107   30.494678890  114.532797134   117.5896   2   8   1.3081   1.1083   4.1389   0.2788   0.8464  -2.0201  -0.00    0.0
1939 182108   30.494678197  114.532797777   117.9250   2   8   1.1842   1.0019   3.7589   0.3766   0.6058  -1.8203  -0.00    0.0
1939 182109   30.494677724  114.532798404   118.1561   2   8   1.0929   0.9237   3.4774   0.4074   0.4266  -1.6755  -0.00    0.0
1939 182110   30.494677306  114.532798719   118.3915   2   8   1.0212   0.8626   3.2556   0.4165   0.2736  -1.5633  -0.00    0.0
1939 182111   30.494676287  114.532798958   118.8627   1   8   0.0385   0.0287   0.1414   0.0206  -0.0325  -0.0674  -0.00    9.0
1939 182112   30.494676286  114.532798970   118.8612   1   8   0.0377   0.0282   0.1380   0.0206  -0.0322  -0.0657  -0.00   16.6
1939 182113   30.494676286  114.532798965   118.8655   1   8   0.0371   0.0279   0.1353   0.0205  -0.0319  -0.0644  -0.00    9.3
1939 182114   30.494676274  114.532798962   118.8766   1   8   0.0366   0.0276   0.1329   0.0204  -0.0314  -0.0632  -0.00    4.8
1939 182115   30.494676376  114.532800055   119.1752   2   8   0.8029   0.6773   2.5744   0.3902  -0.3008  -1.2265  -0.00    2.7
1939 182116   30.494676363  114.532800204   119.2557   2   8   0.7742   0.6530   2.4842   0.3823  -0.3137  -1.1826  -0.00    1.8
1939 182117   30.494676313  114.532800515   119.3753   2   9   0.7436   0.6312   2.3336   0.3755  -0.3291  -1.1217  -0.00    1.0
1939 182118   30.494677912  114.532800788   118.7877   2  13   0.6537   0.5810   1.9717   0.3326  -0.2558  -0.9271  -0.00    1.0
1939 182119   30.494678583  114.532801030   118.5527   2  13   0.6013   0.5465   1.7634   0.3063  -0.2131  -0.8168  -0.00    1.5
1939 182120   30.494678739  114.532801363   118.1895   1  13   0.0280   0.0217   0.0958   0.0150  -0.0232  -0.0447  -0.00    3.0
1939 182121   30.494678737  114.532801356   118.1851   1  13   0.0269   0.0209   0.0915   0.0142  -0.0221  -0.0424  -0.00    5.6
1939 182122   30.494678754  114.532801359   118.1827   1  13   0.0261   0.0204   0.0882   0.0136  -0.0212  -0.0406  -0.00    5.1
1939 182123   30.494679726  114.532801984   118.2269   2  13   0.4829   0.4525   1.3171   0.2425  -0.1283  -0.5832  -0.00    2.9
1939 182124   30.494680231  114.532805883   118.8615   1  13   0.0201   0.0177   0.0528   0.0099  -0.0082  -0.0225  -0.00    3.2
1939 182125   30.494680222  114.532805871   118.8612   1  13   0.0198   0.0175   0.0515   0.0096  -0.0077  -0.0217  -0.00    3.4
1939 182126   30.494680226  114.532805874   118.8599   1  13   0.0196   0.0174   0.0505   0.0095  -0.0073  -0.0211  -0.00    3.8
1939 182127   30.494680205  114.532805867   118.8646   1  13   0.0191   0.0173   0.0451   0.0093  -0.0064  -0.0189  -0.00    6.2
1939 182128   30.494680203  114.532805877   118.8668   1  13   0.0178   0.0162   0.0405   0.0079  -0.0016  -0.0149  -0.00   24.5
1939 182129   30.494680213  114.532805873   118.8692   1  13   0.0178   0.0162   0.0405   0.0079  -0.0016  -0.0149  -0.00   25.3
1939 182130   30.494680229  114.532805887   118.8643   1  13   0.0178   0.0162   0.0405   0.0079  -0.0017  -0.0149  -0.00   25.6
1939 182131   30.494680225  114.532805884   118.8654   1  13   0.0178   0.0162   0.0405   0.0079  -0.0016  -0.0149  -0.00   26.1
1939 182132   30.494680227  114.532805888   118.8666   1  13   0.0178   0.0162   0.0405   0.0079  -0.0016  -0.0149  -0.00   26.7
1939 182133   30.494680214  114.532805879   118.8680   1  13   0.0178   0.0162   0.0405   0.0079  -0.0016  -0.0149  -0.00   26.9
1939 182134   30.494680219  114.532805897   118.8661   1  13   0.0178   0.0162   0.0405   0.0079  -0.0016  -0.0149  -0.00   27.0
1939 182135   30.494680196  114.532805880   118.8703   1  13   0.0178   0.0162   0.0405   0.0079  -0.0016  -0.0149  -0.00   27.6
1939 182136   30.494680213  114.532805874   118.8670   1  13   0.0178   0.0162   0.0405   0.0079  -0.0015  -0.0149  -0.00   27.9
1939 182137   30.494680212  114.532805887   118.8688   1  13   0.0178   0.0162   0.0405   0.0079  -0.0015  -0.0149  -0.00   27.8
1939 182138   30.494680219  114.532805878   118.8717   1  13   0.0178   0.0162   0.0405   0.0079  -0.0015  -0.0149  -0.00   27.5
1939 182139   30.494680210  114.532805885   118.8691   1  13   0.0178   0.0162   0.0405   0.0079  -0.0015  -0.0149  -0.00   27.7
1939 182140   30.494680207  114.532805874   118.8693   1  13   0.0178   0.0162   0.0405   0.0079  -0.0015  -0.0149  -0.00   28.4
1939 182141   30.494680204  114.532805876   118.8700   1  13   0.0178   0.0162   0.0405   0.0079  -0.0015  -0.0149  -0.00   28.6
1939 182142   30.494680194  114.532805870   118.8709   1  13   0.0178   0.0162   0.0405   0.0079  -0.0015  -0.0149  -0.00   29.3
1939 182143   30.494680208  114.532805880   118.8710   1  13   0.0178   0.0162   0.0405   0.0079  -0.0014  -0.0149  -0.00   29.4
1939 182144   30.494680199  114.532805885   118.8738   1  13   0.0178   0.0162   0.0405   0.0079  -0.0014  -0.0149  -0.00   29.7
1939 182145   30.494680195  114.532805869   118.8707   1  13   0.0178   0.0162   0.0405   0.0079  -0.0014  -0.0149  -0.00   30.5
1939 182146   30.494680206  114.532805893   118.8704   1  13   0.0178   0.0162   0.0405   0.0079  -0.0013  -0.0149  -0.00   31.4
1939 182147   30.494680207  114.532805879   118.8703   1  13   0.0178   0.0162   0.0405   0.0079  -0.0014  -0.0149  -0.00   32.6
1939 182148   30.494680205  114.532805873   118.8671   1  13   0.0178   0.0162   0.0405   0.0079  -0.0013  -0.0148  -0.00   34.0
1939 182149   30.494680220  114.532805879   118.8661   1  13   0.0178   0.0162   0.0405   0.0079  -0.0013  -0.0148  -0.00   35.4
1939 182150   30.494680212  114.532805891   118.8654   1  13   0.0178   0.0162   0.0405   0.0079  -0.0014  -0.0148  -0.00   36.9
1939 182151   30.494680213  114.532805879   118.8668   1  13   0.0178   0.0162   0.0405   0.0079  -0.0014  -0.0148  -0.00   38.1
1939 182152   30.494680212  114.532805871   118.8683   1  13   0.0178   0.0162   0.0405   0.0079  -0.0013  -0.0148  -0.00   39.2
1939 182153   30.494680196  114.532805870   118.8682   1  13   0.0178   0.0162   0.0405   0.0079  -0.0013  -0.0148  -0.00   40.7
1939 182154   30.494680216  114.532805873   118.8696   1  13   0.0178   0.0162   0.0405   0.0079  -0.0013  -0.0148  -0.00   42.0
1939 182155   30.494680211  114.532805878   118.8687   1  13   0.0178   0.0162   0.0405   0.0079  -0.0012  -0.0148  -0.00   43.4
1939 182156   30.494680200  114.532805870   118.8700   1  13   0.0178   0.0162   0.0405   0.0079  -0.0013  -0.0148  -0.00   44.8
1939 182157   30.494680217  114.532805877   118.8678   1  13   0.0178   0.0162   0.0405   0.0079  -0.0013  -0.0148  -0.00   45.5
1939 182158   30.494680219  114.532805878   118.8676   1  13   0.0178   0.0162   0.0405   0.0079  -0.0013  -0.0148  -0.00   46.3
1939 182159   30.494680225  114.532805883   118.8643   1  13   0.0178   0.0162   0.0405   0.0079  -0.0013  -0.0148  -0.00   47.2
1939 182160   30.494680210  114.532805879   118.8690   1  13   0.0178   0.0162   0.0405   0.0079  -0.0012  -0.0148  -0.00   47.6
1939 182161   30.494680214  114.532805883   118.8646   1  13   0.0178   0.0162   0.0405   0.0078  -0.0012  -0.0148  -0.00   47.8
1939 182162   30.494680216  114.532805877   118.8659   1  13   0.0177   0.0162   0.0405   0.0079  -0.0012  -0.0148  -0.00   47.8
1939 182163   30.494680224  114.532805875   118.8651   1  13   0.0178   0.0162   0.0405   0.0079  -0.0012  -0.0148  -0.00   48.0
1939 182164   30.494680222  114.532805882   118.8651   1  13   0.0177   0.0162   0.0405   0.0079  -0.0012  -0.0148  -0.00   48.6
1939 182165   30.494680221  114.532805878   118.8660   1  13   0.0177   0.0162   0.0405   0.0079  -0.0011  -0.0148  -0.00   49.5
1939 182166   30.494680218  114.532805882   118.8668   1  13   0.0177   0.0162   0.0405   0.0078  -0.0011  -0.0148  -0.00   50.7
1939 182167   30.494680231  114.532805880   118.8628   1  13   0.0177   0.0162   0.0405   0.0078  -0.0011  -0.0148  -0.00   51.5
1939 182168   30.494680221  114.532805882   118.8677   1  13   0.0177   0.0162   0.0405   0.0079  -0.0011  -0.0147  -0.00   52.5
1939 182169   30.494680230  114.532805880   118.8643   1  13   0.0177   0.0162   0.0405   0.0078  -0.0011  -0.0148  -0.00   52.9
1939 182170   30.494680230  114.532805876   118.8644   1  13   0.0177   0.0162   0.0405   0.0078  -0.0010  -0.0147  -0.00   53.1
1939 182171   30.494680229  114.532805882   118.8660   1  13   0.0178   0.0162   0.0405   0.0078  -0.0011  -0.0147  -0.00   53.6
1939 182172   30.494680220  114.532805873   118.8644   1  13   0.0177   0.0162   0.0405   0.0078  -0.0011  -0.0147  -0.00   54.4
1939 182173   30.494680229  114.532805882   118.8645   1  13   0.0177   0.0162   0.0405   0.0079  -0.0010  -0.0147  -0.00   54.7
1939 182174   30.494680234  114.532805892   118.8640   1  13   0.0177   0.0162   0.0405   0.0078  -0.0010  -0.0147  -0.00   55.1
1939 182175   30.494680229  114.532805882   118.8662   1  13   0.0177   0.0162   0.0405   0.0079  -0.0010  -0.0147  -0.00   55.3
1939 182176   30.494680236  114.532805890   118.8644   1  13   0.0177   0.0162   0.0405   0.0078  -0.0009  -0.0147  -0.00   55.5
1939 182177   30.494680225  114.532805873   118.8650   1  13   0.0177   0.0162   0.0405   0.0078  -0.0009  -0.0147  -0.00   56.5
1939 182178   30.494680222  114.532805870   118.8691   1  13   0.0177   0.0162   0.0405   0.0078  -0.0009  -0.0147  -0.00   57.8
1939 182179   30.494680229  114.532805890   118.8663   1  13   0.0177   0.0162   0.0405   0.0078  -0.0008  -0.0147  -0.00   59.5
1939 182180   30.494680238  114.532805892   118.8648   1  13   0.0177   0.0162   0.0405   0.0078  -0.0008  -0.0147  -0.00   60.4
1939 182181   30.494680238  114.532805890   118.8652   1  13   0.0177   0.0162   0.0405   0.0078  -0.0008  -0.0147  -0.00   61.3
1939 182182   30.494680228  114.532805895   118.8667   1  13   0.0177   0.0162   0.0405   0.0078  -0.0008  -0.0147  -0.00   63.0
1939 182183   30.494680240  114.532805893   118.8659   1  13   0.0177   0.0162   0.0405   0.0078  -0.0007  -0.0147  -0.00   64.1
1939 182184   30.494680238  114.532805900   118.8647   1  13   0.0177   0.0162   0.0405   0.0078  -0.0008  -0.0147  -0.00   64.8
1939 182185   30.494680237  114.532805882   118.8652   1  13   0.0177   0.0162   0.0404   0.0078  -0.0007  -0.0147  -0.00   65.5
1939 182186   30.494680226  114.532805898   118.8713   1  13   0.0177   0.0162   0.0404   0.0078  -0.0008  -0.0147  -0.00   66.8
1939 182187   30.494680226  114.532805887   118.8707   1  13   0.0177   0.0161   0.0404   0.0078  -0.0007  -0.0147  -0.00   67.0
1939 182188   30.494680229  114.532805881   118.8697   1  13   0.0177   0.0162   0.0404   0.0078  -0.0008  -0.0147  -0.00   67.0
1939 182189   30.494680224  114.532805881   118.8684   1  13   0.0177   0.0162   0.0404   0.0078  -0.0007  -0.0147  -0.00   68.1
1939 182190   30.494680231  114.532805879   118.8706   1  13   0.0177   0.0162   0.0404   0.0078  -0.0006  -0.0146  -0.00   69.2
1939 182191   30.494680227  114.532805876   118.8675   1  13   0.0177   0.0162   0.0404   0.0078  -0.0006  -0.0147  -0.00   70.2
1939 182192   30.494680223  114.532805876   118.8704   1  13   0.0177   0.0162   0.0404   0.0078  -0.0004  -0.0146  -0.00   71.2
1939 182193   30.494680224  114.532805861   118.8722   1  13   0.0177   0.0161   0.0404   0.0078  -0.0005  -0.0146  -0.00   71.3
1939 182194   30.494680213  114.532805887   118.8734   1  13   0.0177   0.0161   0.0404   0.0078  -0.0006  -0.0146  -0.00   72.1
1939 182195   30.494680221  114.532805861   118.8698   1  13   0.0177   0.0162   0.0404   0.0078  -0.0005  -0.0146  -0.00   71.6
1939 182196   30.494680215  114.532805864   118.8698   1  13   0.0177   0.0162   0.0404   0.0078  -0.0005  -0.0146  -0.00   72.1
1939 182197   30.494680219  114.532805861   118.8700   1  13   0.0177   0.0161   0.0404   0.0078  -0.0004  -0.0146  -0.00   72.4
1939 182198   30.494680228  114.532805864   118.8696   1  13   0.0177   0.0161   0.0404   0.0078   0.0003  -0.0146  -0.00   72.9
1939 182199   30.494680225  114.532805860   118.8682   1  13   0.0177   0.0161   0.0404   0.0078   0.0002  -0.0146  -0.00   73.1
1939 182200   30.494680231  114.532805877   118.8671   1  13   0.0177   0.0161   0.0404   0.0078  -0.0002  -0.0146  -0.00   74.0
1939 182201   30.494680227  114.532805876   118.8703   1  13   0.0177   0.0162   0.0404   0.0078  -0.0003  -0.0146  -0.00   73.7
1939 182202   30.494680228  114.532805871   118.8652   1  13   0.0177   0.0161   0.0404   0.0078   0.0003  -0.0146  -0.00   74.4
1939 182203   30.494680220  114.532805863   118.8709   1  13   0.0177   0.0161   0.0404   0.0078   0.0004  -0.0146  -0.00   75.1
1939 182204   30.494680211  114.532805850   118.8702   1  13   0.0177   0.0161   0.0404   0.0078  -0.0002  -0.0146  -0.00   74.8
1939 182205   30.494680223  114.532805870   118.8693   1  13   0.0177   0.0161   0.0404   0.0078  -0.0001  -0.0146  -0.00   74.4
1939 182206   30.494680220  114.532805866   118.8697   1  13   0.0177   0.0161   0.0404   0.0078   0.0004  -0.0146  -0.00   74.6
1939 182207   30.494680216  114.532805866   118.8680   1  13   0.0177   0.0161   0.0404   0.0078   0.0005  -0.0146  -0.00   74.4
1939 182208   30.494680223  114.532805876   118.8677   1  13   0.0177   0.0161   0.0404   0.0078   0.0006  -0.0146  -0.00   74.5
1939 182209   30.494680232  114.532805873   118.8684   1  13   0.0177   0.0161   0.0404   0.0078   0.0005  -0.0146  -0.00   74.7
1939 182210   30.494680222  114.532805868   118.8681   1  13   0.0177   0.0161   0.0404   0.0078   0.0007  -0.0146  -0.00   75.1
1939 182211   30.494680219  114.532805863   118.8699   1  13   0.0177   0.0161   0.0404   0.0078   0.0007  -0.0146  -0.00   75.2
1939 182212   30.494680203  114.532805857   118.8733   1  13   0.0177   0.0161   0.0404   0.0078   0.0006  -0.0145  -0.00   75.5
1939 182213   30.494680219  114.532805872   118.8695   1  13   0.0177   0.0161   0.0404   0.0078   0.0009  -0.0145  -0.00   75.3
1939 182214   30.494680224  114.532805887   118.8699   1  13   0.0177   0.0161   0.0404   0.0078   0.0006  -0.0145  -0.00   74.7
1939 182215   30.494680227  114.532805874   118.8681   1  13   0.0177   0.0161   0.0404   0.0078   0.0007  -0.0145  -0.00   75.2
1939 182216   30.494680225  114.532805883   118.8667   1  13   0.0177   0.0161   0.0404   0.0078   0.0008  -0.0145  -0.00   75.7
1939 182217   30.494680223  114.532805865   118.8697   1  13   0.0177   0.0161   0.0404   0.0078   0.0008  -0.0145  -0.00   76.0
1939 182218   30.494680208  114.532805874   118.8706   1  13   0.0177   0.0161   0.0404   0.0078   0.0008  -0.0145  -0.00   76.2
1939 182219   30.494680209  114.532805870   118.8694   1  13   0.0177   0.0161   0.0404   0.0078   0.0008  -0.0145  -0.00   75.8
1939 182220   30.494680205  114.532805871   118.8703   1  13   0.0177   0.0161   0.0404   0.0078   0.0008  -0.0145  -0.00   76.1
1939 182221   30.494680223  114.532805884   118.8698   1  13   0.0177   0.0161   0.0404   0.0078   0.0008  -0.0145  -0.00   76.0
1939 182222   30.494680228  114.532805889   118.8695   1  13   0.0177   0.0161   0.0404   0.0078   0.0009  -0.0145  -0.00   76.3
1939 182223   30.494680220  114.532805870   118.8687   1  13   0.0177   0.0161   0.0404   0.0078   0.0009  -0.0145  -0.00   76.8
1939 182224   30.494680231  114.532805878   118.8704   1  13   0.0177   0.0161   0.0404   0.0078   0.0009  -0.0145  -0.00   77.0
1939 182225   30.494680225  114.532805880   118.8682   1  13   0.0177   0.0161   0.0404   0.0078   0.0009  -0.0145  -0.00   77.2
1939 182226   30.494680231  114.532805895   118.8708   1  13   0.0177   0.0161   0.0404   0.0078   0.0009  -0.0145  -0.00   77.4
1939 182227   30.494680231  114.532805891   118.8693   1  13   0.0177   0.0161   0.0404   0.0078   0.0010  -0.0145  -0.00   77.1
1939 182228   30.494680230  114.532805885   118.8675   1  13   0.0177   0.0161   0.0404   0.0078   0.0011  -0.0145  -0.00   76.8
1939 182229   30.494680240  114.532805894   118.8665   1  13   0.0177   0.0161   0.0404   0.0078   0.0009  -0.0145  -0.00   77.3
1939 182230   30.494680239  114.532805893   118.8685   1  13   0.0177   0.0161   0.0404   0.0078   0.0010  -0.0145  -0.00   77.0
1939 182231   30.494680234  114.532805885   118.8693   1  13   0.0177   0.0161   0.0404   0.0078   0.0010  -0.0145  -0.00   76.9
1939 182232   30.494680254  114.532805895   118.8675   1  13   0.0177   0.0161   0.0404   0.0078   0.0011  -0.0145  -0.00   76.3
1939 182233   30.494680248  114.532805895   118.8668   1  13   0.0177   0.0161   0.0404   0.0078   0.0011  -0.0145  -0.00   76.1
1939 182234   30.494680242  114.532805901   118.8677   1  13   0.0177   0.0161   0.0404   0.0078   0.0011  -0.0145  -0.00   76.3
1939 182235   30.494680244  114.532805892   118.8690   1  13   0.0177   0.0161   0.0404   0.0078   0.0011  -0.0144  -0.00   76.9
1939 182236   30.494680238  114.532805891   118.8674   1  13   0.0177   0.0161   0.0404   0.0078   0.0011  -0.0144  -0.00   77.0
1939 182237   30.494680247  114.532805892   118.8698   1  13   0.0177   0.0161   0.0404   0.0078   0.0011  -0.0144  -0.00   76.6
1939 182238   30.494680229  114.532805884   118.8720   1  13   0.0177   0.0161   0.0404   0.0078   0.0012  -0.0144  -0.00   76.1
1939 182239   30.494680241  114.532805899   118.8738   1  13   0.0177   0.0161   0.0404   0.0078   0.0012  -0.0144  -0.00   75.6
1939 182240   30.494680241  114.532805896   118.8703   1  13   0.0177   0.0161   0.0404   0.0078   0.0012  -0.0144  -0.00   75.1
1939 182241   30.494680249  114.532805903   118.8678   1  13   0.0177   0.0161   0.0404   0.0078   0.0011  -0.0144  -0.00   75.1
1939 182242   30.494680237  114.532805896   118.8727   1  13   0.0177   0.0161   0.0404   0.0078   0.0012  -0.0144  -0.00   75.1
1939 182243   30.494680242  114.532805897   118.8696   1  13   0.0177   0.0161   0.0404   0.0078   0.0012  -0.0144  -0.00   74.2
1939 182244   30.494680234  114.532805901   118.8711   1  13   0.0177   0.0161   0.0404   0.0078   0.0012  -0.0144  -0.00   73.7
1939 182245   30.494680238  114.532805899   118.8746   1  13   0.0177   0.0161   0.0404   0.0077   0.0012  -0.0144  -0.00   72.7
1939 182246   30.494680233  114.532805894   118.8737   1  13   0.0177   0.0161   0.0404   0.0077   0.0014  -0.0144  -0.00   71.7
1939 182247   30.494680227  114.532805896   118.8701   1  13   0.0177   0.0161   0.0403   0.0077   0.0012  -0.0144  -0.00   71.0
1939 182248   30.494680240  114.532805910   118.8691   1  13   0.0177   0.0161   0.0403   0.0078   0.0014  -0.0144  -0.00   70.9
1939 182249   30.494680235  114.532805902   118.8722   1  13   0.0177   0.0161   0.0403   0.0077   0.0014  -0.0144  -0.00   70.3
1939 182250   30.494680216  114.532805899   118.8745   1  13   0.0177   0.0161   0.0403   0.0077   0.0013  -0.0144  -0.00   69.8
1939 182251   30.494680230  114.532805909   118.8725   1  13   0.0177   0.0161   0.0403   0.0077   0.0014  -0.0144  -0.00   68.5
1939 182252   30.494680220  114.532805909   118.8726   1  13   0.0177   0.0161   0.0403   0.0077   0.0013  -0.0144  -0.00   67.8
1939 182253   30.494680217  114.532805906   118.8720   1  13   0.0177   0.0161   0.0403   0.0078   0.0014  -0.0144  -0.00   67.0
1939 182254   30.494680220  114.532805912   118.8723   1  13   0.0177   0.0161   0.0403   0.0077   0.0014  -0.0144  -0.00   66.6
1939 182255   30.494680228  114.532805905   118.8725   1  13   0.0177   0.0161   0.0403   0.0078   0.0014  -0.0144  -0.00   66.4
1939 182256   30.494680228  114.532805903   118.8747   1  13   0.0177   0.0161   0.0403   0.0077   0.0013  -0.0144  -0.00   65.8
1939 182257   30.494680224  114.532805908   118.8760   1  13   0.0177   0.0161   0.0403   0.0077   0.0014  -0.0143  -0.00   65.1
1939 182258   30.494680231  114.532805903   118.8721   1  13   0.0177   0.0161   0.0403   0.0077   0.0014  -0.0143  -0.00   64.0
1939 182259   30.494680232  114.532805903   118.8736   1  13   0.0177   0.0161   0.0403   0.0077   0.0015  -0.0143  -0.00   63.1
1939 182260   30.494680228  114.532805911   118.8733   1  13   0.0176   0.0161   0.0403   0.0078   0.0014  -0.0143  -0.00   62.2
1939 182261   30.494680231  114.532805905   118.8718   1  13   0.0177   0.0161   0.0403   0.0077   0.0014  -0.0143  -0.00   61.2
1939 182262   30.494680222  114.532805904   118.8734   1  13   0.0177   0.0161   0.0403   0.0077   0.0015  -0.0143  -0.00   60.7
1939 182263   30.494680230  114.532805894   118.8740   1  13   0.0177   0.0161   0.0403   0.0077   0.0015  -0.0143  -0.00   59.9
1939 182264   30.494680232  114.532805903   118.8733   1  13   0.0176   0.0161   0.0403   0.0077   0.0015  -0.0143  -0.00   59.2
1939 182265   30.494680224  114.532805903   118.8740   1  13   0.0176   0.0161   0.0403   0.0077   0.0014  -0.0143  -0.00   58.8
1939 182266   30.494680214  114.532805894   118.8756   1  13   0.0176   0.0161   0.0403   0.0077   0.0015  -0.0143  -0.00   57.9
1939 182267   30.494680217  114.532805903   118.8737   1  13   0.0176   0.0161   0.0403   0.0077   0.0015  -0.0143  -0.00   57.1
1939 182268   30.494680227  114.532805908   118.8708   1  13   0.0177   0.0161   0.0403   0.0077   0.0015  -0.0143  -0.00   56.7
1939 182269   30.494680228  114.532805902   118.8719   1  13   0.0176   0.0161   0.0403   0.0077   0.0016  -0.0143  -0.00   56.1
1939 182270   30.494680217  114.532805903   118.8731   1  13   0.0176   0.0161   0.0403   0.0077   0.0015  -0.0143  -0.00   55.4
1939 182271   30.494680233  114.532805903   118.8694   1  13   0.0176   0.0161   0.0403   0.0077   0.0015  -0.0143  -0.00   54.7
1939 182272   30.494680227  114.532805914   118.8697   1  13   0.0176   0.0161   0.0403   0.0077   0.0016  -0.0143  -0.00   54.1
1939 182273   30.494680227  114.532805910   118.8689   1  13   0.0176   0.0161   0.0403   0.0077   0.0016  -0.0143  -0.00   53.5
1939 182274   30.494680209  114.532805888   118.8696   1  13   0.0176   0.0161   0.0403   0.0077   0.0016  -0.0143  -0.00   53.0
1939 182275   30.494680217  114.532805895   118.8707   1  13   0.0176   0.0161   0.0403   0.0077   0.0017  -0.0143  -0.00   52.5
1939 182276   30.494680215  114.532805887   118.8698   1  13   0.0176   0.0161   0.0403   0.0077   0.0016  -0.0143  -0.00   52.2
1939 182277   30.494680214  114.532805891   118.8715   1  13   0.0176   0.0161   0.0403   0.0077   0.0016  -0.0143  -0.00   51.8
1939 182278   30.494680225  114.532805904   118.8722   1  13   0.0176   0.0161   0.0403   0.0077   0.0016  -0.0143  -0.00   51.4
1939 182279   30.494680230  114.532805899   118.8691   1  13   0.0176   0.0161   0.0403   0.0077   0.0016  -0.0142  -0.00   51.0
1939 182280   30.494680221  114.532805904   118.8698   1  13   0.0176   0.0161   0.0403   0.0077   0.0017  -0.0142  -0.00   50.6
1939 182281   30.494680234  114.532805898   118.8682   1  13   0.0176   0.0161   0.0403   0.0077   0.0017  -0.0142  -0.00   50.2
1939 182282   30.494680215  114.532805897   118.8715   1  13   0.0176   0.0161   0.0403   0.0077   0.0017  -0.0142  -0.00   50.0
1939 182283   30.494680219  114.532805888   118.8730   1  13   0.0176   0.0161   0.0403   0.0077   0.0017  -0.0142  -0.00   49.8
1939 182284   30.494680218  114.532805887   118.8694   1  13   0.0176   0.0161   0.0403   0.0077   0.0017  -0.0142  -0.00   49.4
1939 182285   30.494680218  114.532805896   118.8708   1  13   0.0176   0.0161   0.0403   0.0077   0.0017  -0.0142  -0.00   49.2
1939 182286   30.494680227  114.532805886   118.8680   1  13   0.0176   0.0161   0.0403   0.0077   0.0017  -0.0142  -0.00   49.1
1939 182287   30.494680222  114.532805890   118.8704   1  13   0.0176   0.0161   0.0403   0.0077   0.0017  -0.0142  -0.00   49.0
1939 182288   30.494680221  114.532805894   118.8684   1  13   0.0176   0.0161   0.0403   0.0077   0.0018  -0.0142  -0.00   49.1
1939 182289   30.494680229  114.532805886   118.8692   1  13   0.0176   0.0161   0.0403   0.0077   0.0018  -0.0142  -0.00   49.0
1939 182290   30.494680219  114.532805892   118.8700   1  13   0.0176   0.0161   0.0403   0.0077   0.0017  -0.0142  -0.00   48.8
1939 182291   30.494680229  114.532805898   118.8675   1  13   0.0176   0.0161   0.0403   0.0077   0.0018  -0.0142  -0.00   48.5
1939 182292   30.494680227  114.532805900   118.8691   1  13   0.0176   0.0161   0.0403   0.0077   0.0018  -0.0142  -0.00   48.5
1939 182293   30.494680233  114.532805909   118.8710   1  13   0.0176   0.0161   0.0403   0.0077   0.0018  -0.0142  -0.00   48.8
1939 182294   30.494680216  114.532805902   118.8721   1  13   0.0176   0.0161   0.0403   0.0077   0.0018  -0.0142  -0.00   48.8
1939 182295   30.494680222  114.532805906   118.8704   1  13   0.0176   0.0161   0.0403   0.0077   0.0018  -0.0142  -0.00   49.1
1939 182296   30.494680241  114.532805913   118.8678   1  13   0.0176   0.0161   0.0403   0.0077   0.0018  -0.0142  -0.00   49.2
1939 182297   30.494680239  114.532805905   118.8681   1  13   0.0176   0.0161   0.0403   0.0077   0.0019  -0.0142  -0.00   49.2
1939 182298   30.494680248  114.532805910   118.8683   1  13   0.0176   0.0161   0.0403   0.0077   0.0018  -0.0142  -0.00   49.3
1939 182299   30.494680229  114.532805901   118.8713   1  13   0.0176   0.0161   0.0403   0.0077   0.0019  -0.0142  -0.00   49.4
1939 182300   30.494680229  114.532805891   118.8705   1  13   0.0176   0.0161   0.0403   0.0077   0.0018  -0.0142  -0.00   49.3
1939 182301   30.494680232  114.532805910   118.8706   1  13   0.0176   0.0161   0.0403   0.0077   0.0019  -0.0141  -0.00   49.5
1939 182302   30.494680230  114.532805899   118.8684   1  13   0.0176   0.0161   0.0403   0.0077   0.0019  -0.0141  -0.00   49.6
1939 182303   30.494680229  114.532805912   118.8678   1  13   0.0176   0.0161   0.0403   0.0077   0.0019  -0.0141  -0.00   49.8
1939 182304   30.494680241  114.532805895   118.8678   1  13   0.0176   0.0161   0.0403   0.0077   0.0019  -0.0141  -0.00   50.0
1939 182305   30.494680244  114.532805910   118.8672   1  13   0.0176   0.0161   0.0403   0.0077   0.0019  -0.0141  -0.00   50.1
1939 182306   30.494680244  114.532805910   118.8701   1  13   0.0176   0.0161   0.0403   0.0077   0.0019  -0.0141  -0.00   50.1
1939 182307   30.494680250  114.532805913   118.8671   1  13   0.0176   0.0161   0.0403   0.0077   0.0020  -0.0141  -0.00   50.1
1939 182308   30.494680242  114.532805901   118.8696   1  13   0.0176   0.0161   0.0403   0.0077   0.0019  -0.0141  -0.00   50.2
1939 182309   30.494680237  114.532805899   118.8696   1  13   0.0176   0.0161   0.0403   0.0077   0.0019  -0.0141  -0.00   50.5
1939 182310   30.494680228  114.532805894   118.8702   1  13   0.0176   0.0161   0.0403   0.0077   0.0020  -0.0141  -0.00   50.7
1939 182311   30.494680238  114.532805897   118.8720   1  13   0.0176   0.0161   0.0403   0.0077   0.0020  -0.0141  -0.00   51.2
1939 182312   30.494680223  114.532805901   118.8712   1  13   0.0176   0.0161   0.0403   0.0077   0.0020  -0.0141  -0.00   51.4
1939 182313   30.494680242  114.532805896   118.8711   1  13   0.0176   0.0161   0.0403   0.0077   0.0020  -0.0141  -0.00   51.9
1939 182314   30.494680238  114.532805898   118.8697   1  13   0.0176   0.0161   0.0403   0.0077   0.0020  -0.0141  -0.00   52.3
1939 182315   30.494680243  114.532805905   118.8701   1  13   0.0176   0.0161   0.0402   0.0077   0.0020  -0.0141  -0.00   52.9
1939 182316   30.494680229  114.532805880   118.8699   1  13   0.0176   0.0161   0.0402   0.0077   0.0020  -0.0141  -0.00   53.5
1939 182317   30.494680229  114.532805886   118.8697   1  13   0.0176   0.0161   0.0402   0.0077   0.0020  -0.0141  -0.00   54.0
1939 182318   30.494680243  114.532805889   118.8724   1  13   0.0176   0.0161   0.0402   0.0077   0.0020  -0.0141  -0.00   54.2
1939 182319   30.494680231  114.532805887   118.8708   1  13   0.0176   0.0161   0.0402   0.0077   0.0020  -0.0141  -0.00   54.3
1939 182320   30.494680232  114.532805898   118.8710   1  13   0.0176   0.0161   0.0402   0.0077   0.0020  -0.0141  -0.00   54.6
1939 182321   30.494680224  114.532805889   118.8704   1  13   0.0176   0.0161   0.0402   0.0077   0.0020  -0.0141  -0.00   55.1
1939 182322   30.494680233  114.532805897   118.8705   1  13   0.0176   0.0161   0.0402   0.0077   0.0021  -0.0141  -0.00   55.4
1939 182323   30.494680239  114.532805901   118.8688   1  13   0.0176   0.0161   0.0402   0.0077   0.0020  -0.0140  -0.00   55.7
1939 182324   30.494680250  114.532805910   118.8688   1  13   0.0176   0.0161   0.0402   0.0077   0.0021  -0.0140  -0.00   55.8
1939 182325   30.494680244  114.532805895   118.8703   1  13   0.0176   0.0161   0.0402   0.0076   0.0021  -0.0140  -0.00   56.2
1939 182326   30.494680219  114.532805892   118.8739   1  13   0.0176   0.0161   0.0402   0.0077   0.0021  -0.0140  -0.00   56.5
1939 182327   30.494680233  114.532805887   118.8710   1  13   0.0176   0.0161   0.0402   0.0077   0.0021  -0.0140  -0.00   56.8
1939 182328   30.494680233  114.532805898   118.8725   1  13   0.0176   0.0161   0.0402   0.0077   0.0021  -0.0140  -0.00   57.1
1939 182329   30.494680235  114.532805898   118.8708   1  13   0.0176   0.0161   0.0402   0.0077   0.0021  -0.0140  -0.00   57.3
1939 182330   30.494680225  114.532805885   118.8701   1  13   0.0176   0.0161   0.0402   0.0077   0.0021  -0.0140  -0.00   57.7
1939 182331   30.494680223  114.532805886   118.8707   1  13   0.0176   0.0161   0.0402   0.0077   0.0022  -0.0140  -0.00   58.2
1939 182332   30.494680235  114.532805891   118.8706   1  13   0.0176   0.0161   0.0402   0.0077   0.0021  -0.0140  -0.00   58.6
1939 182333   30.494680229  114.532805896   118.8689   1  13   0.0176   0.0161   0.0402   0.0077   0.0022  -0.0140  -0.00   59.2
1939 182334   30.494680223  114.532805884   118.8702   1  13   0.0176   0.0161   0.0402   0.0076   0.0021  -0.0140  -0.00   59.6
1939 182335   30.494680225  114.532805881   118.8716   1  13   0.0176   0.0161   0.0402   0.0077   0.0021  -0.0140  -0.00   60.0
1939 182336   30.494680223  114.532805885   118.8715   1  13   0.0176   0.0161   0.0402   0.0077   0.0022  -0.0140  -0.00   60.5
1939 182337   30.494680218  114.532805876   118.8729   1  13   0.0176   0.0161   0.0402   0.0077   0.0021  -0.0140  -0.00   60.8
1939 182338   30.494680230  114.532805882   118.8750   1  13   0.0176   0.0161   0.0402   0.0076   0.0021  -0.0140  -0.00   61.0
1939 182339   30.494680223  114.532805886   118.8746   1  13   0.0176   0.0161   0.0402   0.0076   0.0022  -0.0140  -0.00   61.3
1939 182340   30.494680219  114.532805876   118.8737   1  13   0.0176   0.0161   0.0402   0.0076   0.0022  -0.0140  -0.00   61.6
1939 182341   30.494680235  114.532805894   118.8701   1  13   0.0176   0.0161   0.0402   0.0077   0.0022  -0.0140  -0.00   61.8
1939 182342   30.494680227  114.532805883   118.8675   1  13   0.0176   0.0161   0.0402   0.0077   0.0022  -0.0140  -0.00   62.0
1939 182343   30.494680225  114.532805873   118.8741   1  13   0.0176   0.0161   0.0402   0.0077   0.0022  -0.0140  -0.00   62.4
1939 182344   30.494680222  114.532805882   118.8727   1  13   0.0176   0.0161   0.0402   0.0076   0.0022  -0.0139  -0.00   62.8
1939 182345   30.494680218  114.532805882   118.8735   1  13   0.0176   0.0161   0.0402   0.0076   0.0023  -0.0139  -0.00   63.1
1939 182346   30.494680215  114.532805874   118.8743   1  13   0.0176   0.0161   0.0402   0.0076   0.0023  -0.0140  -0.00   63.3
1939 182347   30.494680216  114.532805880   118.8710   1  13   0.0176   0.0161   0.0402   0.0076   0.0022  -0.0139  -0.00   63.5
1939 182348   30.494680216  114.532805876   118.8734   1  13   0.0176   0.0161   0.0402   0.0076   0.0022  -0.0139  -0.00   64.0
1939 182349   30.494680233  114.532805892   118.8704   1  13   0.0176   0.0161   0.0402   0.0076   0.0022  -0.0139  -0.00   64.1
1939 182350   30.494680232  114.532805874   118.8712   1  13   0.0176   0.0161   0.0402   0.0076   0.0023  -0.0139  -0.00   64.2
1939 182351   30.494680236  114.532805886   118.8684   1  13   0.0176   0.0161   0.0402   0.0076   0.0023  -0.0139  -0.00   64.4
1939 182352   30.494680235  114.532805887   118.8709   1  13   0.0176   0.0161   0.0402   0.0076   0.0023  -0.0139  -0.00   64.8
1939 182353   30.494680233  114.532805886   118.8691   1  13   0.0176   0.0161   0.0402   0.0076   0.0023  -0.0139  -0.00   65.3
1939 182354   30.494680222  114.532805873   118.8701   1  13   0.0176   0.0161   0.0402   0.0076   0.0023  -0.0139  -0.00   65.8
1939 182355   30.494680219  114.532805885   118.8729   1  13   0.0176   0.0161   0.0402   0.0076   0.0023  -0.0139  -0.00   66.2
1939 182356   30.494680207  114.532805880   118.8772   1  13   0.0176   0.0161   0.0402   0.0076   0.0023  -0.0139  -0.00   66.8
1939 182357   30.494680218  114.532805878   118.8725   1  13   0.0176   0.0161   0.0402   0.0076   0.0024  -0.0139  -0.00   67.2
1939 182358   30.494680202  114.532805872   118.8762   1  13   0.0176   0.0161   0.0402   0.0076   0.0024  -0.0139  -0.00   67.6
1939 182359   30.494680223  114.532805875   118.8683   1  13   0.0176   0.0161   0.0402   0.0076   0.0023  -0.0139  -0.00   68.1
1939 182360   30.494680218  114.532805888   118.8676   1  13   0.0176   0.0161   0.0402   0.0076   0.0023  -0.0139  -0.00   68.7
1939 182361   30.494680235  114.532805907   118.8676   1  13   0.0176   0.0161   0.0402   0.0076   0.0023  -0.0139  -0.00   69.4
1939 182362   30.494680235  114.532805900   118.8685   1  13   0.0176   0.0161   0.0402   0.0076   0.0024  -0.0139  -0.00   70.2
1939 182363   30.494680219  114.532805892   118.8699   1  13   0.0176   0.0161   0.0402   0.0076   0.0024  -0.0139  -0.00   70.7
1939 182364   30.494680227  114.532805887   118.8688   1  13   0.0176   0.0161   0.0402   0.0076   0.0024  -0.0139  -0.00   71.1
1939 182365   30.494680226  114.532805900   118.8712   1  13   0.0176   0.0161   0.0402   0.0076   0.0024  -0.0139  -0.00   71.5
1939 182366   30.494680234  114.532805909   118.8687   1  13   0.0176   0.0161   0.0402   0.0076   0.0024  -0.0138  -0.00   71.9
1939 182367   30.494680228  114.532805909   118.8690   1  13   0.0176   0.0161   0.0402   0.0076   0.0024  -0.0138  -0.00   72.2
1939 182368   30.494680234  114.532805915   118.8687   1  13   0.0176   0.0161   0.0402   0.0076   0.0024  -0.0138  -0.00   72.6
1939 182369   30.494680240  114.532805923   118.8661   1  13   0.0176   0.0161   0.0402   0.0076   0.0024  -0.0138  -0.00   73.1
1939 182370   30.494680229  114.532805926   118.8684   1  13   0.0176   0.0161   0.0402   0.0076   0.0024  -0.0138  -0.00   73.6
1939 182371   30.494680240  114.532805918   118.8675   1  13   0.0176   0.0161   0.0402   0.0076   0.0024  -0.0138  -0.00   73.9
1939 182372   30.494680237  114.532805917   118.8700   1  13   0.0176   0.0161   0.0402   0.0076   0.0025  -0.0138  -0.00   74.2
1939 182373   30.494680226  114.532805913   118.8711   1  13   0.0176   0.0161   0.0402   0.0076   0.0025  -0.0138  -0.00   74.5
1939 182374   30.494680218  114.532805916   118.8715   1  13   0.0175   0.0161   0.0402   0.0076   0.0025  -0.0138  -0.00   75.1
1939 182375   30.494680227  114.532805905   118.8683   1  13   0.0176   0.0161   0.0402   0.0076   0.0025  -0.0138  -0.00   75.3
1939 182376   30.494680231  114.532805910   118.8695   1  13   0.0175   0.0161   0.0402   0.0076   0.0025  -0.0138  -0.00   75.7
1939 182377   30.494680222  114.532805908   118.8685   1  13   0.0175   0.0161   0.0402   0.0076   0.0025  -0.0138  -0.00   76.0
1939 182378   30.494680229  114.532805911   118.8664   1  13   0.0175   0.0161   0.0402   0.0076   0.0025  -0.0138  -0.00   76.3
1939 182379   30.494680227  114.532805907   118.8689   1  13   0.0175   0.0161   0.0402   0.0076   0.0025  -0.0138  -0.00   76.4
1939 182380   30.494680225  114.532805913   118.8713   1  13   0.0176   0.0161   0.0402   0.0076   0.0025  -0.0138  -0.00   76.8
1939 182381   30.494680210  114.532805910   118.8713   1  13   0.0176   0.0161   0.0402   0.0076   0.0025  -0.0138  -0.00   77.0
1939 182382   30.494680216  114.532805895   118.8691   1  13   0.0175   0.0161   0.0402   0.0076   0.0025  -0.0138  -0.00   77.1
1939 182383   30.494680223  114.532805901   118.8712   1  13   0.0175   0.0161   0.0402   0.0076   0.0025  -0.0138  -0.00   77.1
1939 182384   30.494680208  114.532805904   118.8742   1  13   0.0175   0.0161   0.0402   0.0076   0.0026  -0.0138  -0.00   77.0
1939 182385   30.494680220  114.532805910   118.8726   1  13   0.0175   0.0161   0.0402   0.0076   0.0026  -0.0138  -0.00   76.9
1939 182386   30.494680218  114.532805911   118.8713   1  13   0.0175   0.0161   0.0402   0.0076   0.0025  -0.0138  -0.00   76.8
1939 182387   30.494680220  114.532805912   118.8711   1  13   0.0175   0.0161   0.0402   0.0076   0.0026  -0.0138  -0.00   76.7
1939 182388   30.494680230  114.532805912   118.8719   1  13   0.0175   0.0161   0.0402   0.0076   0.0025  -0.0138  -0.00   76.8
1939 182389   30.494680210  114.532805912   118.8733   1  13   0.0175   0.0161   0.0402   0.0076   0.0025  -0.0138  -0.00   76.8
1939 182390   30.494680235  114.532805914   118.8720   1  13   0.0175   0.0160   0.0402   0.0076   0.0025  -0.0137  -0.00   76.7
1939 182391   30.494680224  114.532805899   118.8726   1  13   0.0175   0.0161   0.0402   0.0076   0.0025  -0.0137  -0.00   76.7
1939 182392   30.494680217  114.532805904   118.8733   1  13   0.0175   0.0161   0.0402   0.0076   0.0026  -0.0137  -0.00   76.5
1939 182393   30.494680208  114.532805894   118.8742   1  13   0.0175   0.0161   0.0402   0.0076   0.0026  -0.0137  -0.00   76.3
1939 182394   30.494680212  114.532805896   118.8754   1  13   0.0175   0.0161   0.0402   0.0076   0.0026  -0.0137  -0.00   76.1
1939 182395   30.494680220  114.532805898   118.8744   1  13   0.0175   0.0161   0.0401   0.0076   0.0026  -0.0137  -0.00   76.0
1939 182396   30.494680211  114.532805893   118.8730   1  13   0.0175   0.0160   0.0401   0.0076   0.0026  -0.0137  -0.00   76.0
1939 182397   30.494680232  114.532805909   118.8742   1  13   0.0175   0.0161   0.0401   0.0076   0.0026  -0.0137  -0.00   75.9
1939 182398   30.494680220  114.532805907   118.8723   1  13   0.0175   0.0161   0.0401   0.0076   0.0026  -0.0137  -0.00   75.8
1939 182399   30.494680219  114.532805900   118.8724   1  13   0.0175   0.0161   0.0401   0.0076   0.0027  -0.0137  -0.00   75.6
1939 182400   30.494680228  114.532805913   118.8733   1  13   0.0175   0.0161   0.0401   0.0076   0.0026  -0.0137  -0.00   75.5
1939 182401   30.494680215  114.532805900   118.8756   1  13   0.0175   0.0161   0.0401   0.0076   0.0026  -0.0137  -0.00   75.2
1939 182402   30.494680204  114.532805909   118.8738   1  13   0.0175   0.0160   0.0401   0.0076   0.0026  -0.0137  -0.00   74.9
1939 182403   30.494680209  114.532805907   118.8764   1  13   0.0175   0.0160   0.0401   0.0076   0.0026  -0.0137  -0.00   74.8
1939 182404   30.494680212  114.532805901   118.8743   1  13   0.0175   0.0160   0.0401   0.0076   0.0026  -0.0137  -0.00   74.7
1939 182405   30.494680221  114.532805905   118.8743   1  13   0.0175   0.0161   0.0401   0.0076   0.0027  -0.0137  -0.00   74.6
1939 182406   30.494680220  114.532805903   118.8731   1  13   0.0175   0.0161   0.0401   0.0076   0.0027  -0.0137  -0.00   74.7
1939 182407   30.494680220  114.532805894   118.8741   1  13   0.0175   0.0160   0.0401   0.0076   0.0027  -0.0137  -0.00   74.8
1939 182408   30.494680222  114.532805913   118.8734   1  13   0.0175   0.0160   0.0401   0.0076   0.0027  -0.0137  -0.00   74.6
1939 182409   30.494680218  114.532805898   118.8732   1  13   0.0175   0.0160   0.0401   0.0076   0.0027  -0.0137  -0.00   74.4
1939 182410   30.494680215  114.532805887   118.8757   1  13   0.0175   0.0160   0.0401   0.0076   0.0027  -0.0137  -0.00   74.3
1939 182411   30.494680214  114.532805910   118.8745   1  13   0.0175   0.0160   0.0401   0.0076   0.0027  -0.0136  -0.00   74.3
1939 182412   30.494680227  114.532805904   118.8746   1  13   0.0175   0.0160   0.0401   0.0076   0.0027  -0.0136  -0.00   74.3
1939 182413   30.494680217  114.532805912   118.8763   1  13   0.0175   0.0160   0.0401   0.0076   0.0027  -0.0136  -0.00   74.3
1939 182414   30.494680231  114.532805896   118.8728   1  13   0.0175   0.0160   0.0401   0.0076   0.0027  -0.0136  -0.00   74.3
1939 182415   30.494680238  114.532805914   118.8715   1  13   0.0175   0.0160   0.0401   0.0076   0.0027  -0.0136  -0.00   74.3
1939 182416   30.494680227  114.532805915   118.8737   1  13   0.0175   0.0161   0.0401   0.0076   0.0027  -0.0136  -0.00   74.3
1939 182417   30.494680228  114.532805901   118.8724   1  13   0.0175   0.0160   0.0401   0.0076   0.0027  -0.0136  -0.00   74.2
1939 182418   30.494680222  114.532805900   118.8773   1  13   0.0175   0.0160   0.0401   0.0076   0.0027  -0.0136  -0.00   74.4
1939 182419   30.494680231  114.532805908   118.8759   1  13   0.0175   0.0160   0.0401   0.0076   0.0028  -0.0136  -0.00   74.4
1939 182420   30.494680233  114.532805900   118.8727   1  13   0.0175   0.0160   0.0401   0.0076   0.0027  -0.0136  -0.00   74.4
1939 182421   30.494680221  114.532805894   118.8758   1  13   0.0175   0.0160   0.0401   0.0076   0.0027  -0.0136  -0.00   74.2
1939 182422   30.494680223  114.532805891   118.8758   1  13   0.0175   0.0160   0.0401   0.0076   0.0028  -0.0136  -0.00   74.2
1939 182423   30.494680226  114.532805903   118.8731   1  13   0.0175   0.0160   0.0401   0.0076   0.0028  -0.0136  -0.00   74.3
1939 182424   30.494680235  114.532805907   118.8714   1  13   0.0175   0.0160   0.0401   0.0076   0.0028  -0.0136  -0.00   74.2
1939 182425   30.494680227  114.532805903   118.8752   1  13   0.0175   0.0160   0.0401   0.0076   0.0028  -0.0136  -0.00   74.1
1939 182426   30.494680220  114.532805906   118.8730   1  13   0.0175   0.0160   0.0401   0.0076   0.0028  -0.0136  -0.00   73.9
1939 182427   30.494680232  114.532805910   118.8740   1  13   0.0175   0.0160   0.0401   0.0076   0.0028  -0.0136  -0.00   73.9
1939 182428   30.494680221  114.532805886   118.8754   1  13   0.0175   0.0160   0.0401   0.0076   0.0028  -0.0136  -0.00   73.8
1939 182429   30.494680220  114.532805894   118.8737   1  13   0.0175   0.0160   0.0401   0.0076   0.0028  -0.0136  -0.00   73.7
1939 182430   30.494680221  114.532805875   118.8751   1  13   0.0175   0.0160   0.0401   0.0076   0.0028  -0.0136  -0.00   73.4
1939 182431   30.494680225  114.532805892   118.8748   1  13   0.0175   0.0160   0.0401   0.0076   0.0028  -0.0136  -0.00   73.4
1939 182432   30.494680216  114.532805896   118.8748   1  13   0.0175   0.0160   0.0401   0.0076   0.0028  -0.0136  -0.00   73.4
1939 182433   30.494680214  114.532805889   118.8746   1  13   0.0175   0.0160   0.0401   0.0076   0.0028  -0.0136  -0.00   73.3
1939 182434   30.494680230  114.532805900   118.8746   1  13   0.0175   0.0160   0.0401   0.0076   0.0028  -0.0135  -0.00   73.3
1939 182435   30.494680224  114.532805898   118.8754   1  13   0.0175   0.0160   0.0401   0.0075   0.0028  -0.0135  -0.00   73.3
1939 182436   30.494680228  114.532805890   118.8744   1  13   0.0175   0.0160   0.0401   0.0076   0.0028  -0.0135  -0.00   73.3
1939 182437   30.494680221  114.532805895   118.8735   1  13   0.0175   0.0160   0.0401   0.0075   0.0029  -0.0135  -0.00   73.2
1939 182438   30.494680209  114.532805908   118.8746   1  13   0.0175   0.0160   0.0401   0.0076   0.0029  -0.0135  -0.00   73.1
1939 182439   30.494680219  114.532805901   118.8731   1  13   0.0175   0.0160   0.0401   0.0075   0.0028  -0.0135  -0.00   72.9
1939 182440   30.494680216  114.532805909   118.8765   1  13   0.0175   0.0160   0.0401   0.0075   0.0029  -0.0135  -0.00   72.9
1939 182441   30.494680208  114.532805911   118.8758   1  13   0.0175   0.0160   0.0401   0.0075   0.0029  -0.0135  -0.00   72.9
1939 182442   30.494680211  114.532805902   118.8736   1  13   0.0175   0.0160   0.0401   0.0076   0.0029  -0.0135  -0.00   72.9
1939 182443   30.494680222  114.532805908   118.8747   1  13   0.0175   0.0160   0.0401   0.0075   0.0029  -0.0135  -0.00   72.7
1939 182444   30.494680210  114.532805907   118.8756   1  13   0.0175   0.0160   0.0401   0.0075   0.0029  -0.0135  -0.00   72.7
1939 182445   30.494680226  114.532805900   118.8721   1  13   0.0175   0.0160   0.0401   0.0075   0.0029  -0.0135  -0.00   72.5
1939 182446   30.494680210  114.532805904   118.8750   1  13   0.0175   0.0160   0.0401   0.0075   0.0029  -0.0135  -0.00   72.3
1939 182447   30.494680224  114.532805902   118.8747   1  13   0.0175   0.0160   0.0401   0.0075   0.0029  -0.0135  -0.00   72.1
1939 182448   30.494680222  114.532805896   118.8743   1  13   0.0175   0.0160   0.0401   0.0075   0.0029  -0.0135  -0.00   72.1
1939 182449   30.494680225  114.532805899   118.8710   1  13   0.0175   0.0160   0.0401   0.0075   0.0029  -0.0135  -0.00   71.9
1939 182450   30.494680219  114.532805900   118.8747   1  13   0.0175   0.0160   0.0401   0.0075   0.0029  -0.0135  -0.00   72.0
1939 182451   30.494680225  114.532805916   118.8716   1  13   0.0175   0.0160   0.0401   0.0075   0.0029  -0.0135  -0.00   72.0
1939 182452   30.494680233  114.532805911   118.8700   1  13   0.0175   0.0160   0.0401   0.0075   0.0030  -0.0135  -0.00   72.0
1939 182453   30.494680232  114.532805908   118.8726   1  13   0.0175   0.0160   0.0401   0.0075   0.0029  -0.0135  -0.00   72.0
1939 182454   30.494680238  114.532805925   118.8694   1  13   0.0175   0.0160   0.0401   0.0075   0.0029  -0.0135  -0.00   72.1
1939 182455   30.494680221  114.532805922   118.8701   1  13   0.0175   0.0160   0.0401   0.0075   0.0029  -0.0135  -0.00   72.1
1939 182456   30.494680238  114.532805920   118.8703   1  13   0.0175   0.0160   0.0401   0.0075   0.0029  -0.0134  -0.00   72.1
1939 182457   30.494680236  114.532805899   118.8716   1  13   0.0175   0.0160   0.0401   0.0075   0.0030  -0.0134  -0.00   72.3
1939 182458   30.494680227  114.532805910   118.8720   1  13   0.0175   0.0160   0.0401   0.0075   0.0030  -0.0134  -0.00   72.4
1939 182459   30.494680212  114.532805903   118.8762   1  13   0.0175   0.0160   0.0401   0.0075   0.0030  -0.0134  -0.00   72.4
1939 182460   30.494680221  114.532805907   118.8706   1  13   0.0175   0.0160   0.0401   0.0075   0.0030  -0.0134  -0.00   72.4
1939 182461   30.494680222  114.532805904   118.8707   1  13   0.0175   0.0160   0.0401   0.0075   0.0030  -0.0134  -0.00   72.4
1939 182462   30.494680212  114.532805895   118.8733   1  13   0.0175   0.0160   0.0401   0.0075   0.0030  -0.0134  -0.00   72.5
1939 182463   30.494680229  114.532805900   118.8704   1  13   0.0175   0.0160   0.0401   0.0075   0.0030  -0.0134  -0.00   72.6
1939 182464   30.494680213  114.532805897   118.8737   1  13   0.0175   0.0160   0.0401   0.0075   0.0030  -0.0134  -0.00   72.6
1939 182465   30.494680221  114.532805899   118.8734   1  13   0.0175   0.0160   0.0401   0.0075   0.0030  -0.0134  -0.00   72.7
1939 182466   30.494680226  114.532805900   118.8706   1  13   0.0175   0.0160   0.0401   0.0075   0.0030  -0.0134  -0.00   72.7
1939 182467   30.494680217  114.532805879   118.8756   1  13   0.0175   0.0160   0.0401   0.0075   0.0030  -0.0134  -0.00   72.7
1939 182468   30.494680207  114.532805880   118.8732   1  13   0.0175   0.0160   0.0401   0.0075   0.0030  -0.0134  -0.00   72.7
1939 182469   30.494680200  114.532805869   118.8755   1  13   0.0175   0.0160   0.0401   0.0075   0.0031  -0.0134  -0.00   72.6
1939 182470   30.494680216  114.532805878   118.8755   1  13   0.0175   0.0160   0.0401   0.0075   0.0030  -0.0134  -0.00   72.7
1939 182471   30.494680212  114.532805878   118.8740   1  13   0.0175   0.0160   0.0401   0.0075   0.0031  -0.0134  -0.00   72.8
1939 182472   30.494680208  114.532805873   118.8731   1  13   0.0175   0.0160   0.0401   0.0075   0.0031  -0.0134  -0.00   72.9
1939 182473   30.494680219  114.532805889   118.8727   1  13   0.0175   0.0160   0.0401   0.0075   0.0031  -0.0134  -0.00   73.0
1939 182474   30.494680215  114.532805877   118.8682   1  13   0.0175   0.0160   0.0401   0.0075   0.0031  -0.0134  -0.00   73.0
1939 182475   30.494680213  114.532805889   118.8732   1  13   0.0175   0.0160   0.0401   0.0075   0.0031  -0.0134  -0.00   73.1
1939 182476   30.494680209  114.532805869   118.8743   1  13   0.0175   0.0160   0.0401   0.0075   0.0031  -0.0134  -0.00   73.2
1939 182477   30.494680206  114.532805883   118.8721   1  13   0.0175   0.0160   0.0401   0.0075   0.0031  -0.0134  -0.00   73.2
1939 182478   30.494680206  114.532805889   118.8714   1  13   0.0175   0.0160   0.0401   0.0075   0.0030  -0.0134  -0.00   73.4
1939 182479   30.494680203  114.532805883   118.8723   1  13   0.0175   0.0160   0.0401   0.0075   0.0031  -0.0133  -0.00   73.6
1939 182480   30.494680223  114.532805896   118.8691   1  13   0.0175   0.0160   0.0401   0.0075   0.0031  -0.0133  -0.00   73.6
1939 182481   30.494680217  114.532805887   118.8696   1  13   0.0175   0.0160   0.0401   0.0075   0.0031  -0.0133  -0.00   73.8
1939 182482   30.494680208  114.532805893   118.8735   1  13   0.0175   0.0160   0.0401   0.0075   0.0031  -0.0133  -0.00   73.9
1939 182483   30.494680225  114.532805891   118.8674   1  13   0.0175   0.0160   0.0401   0.0075   0.0031  -0.0133  -0.00   74.1
1939 182484   30.494680226  114.532805890   118.8675   1  13   0.0175   0.0160   0.0401   0.0075   0.0031  -0.0133  -0.00   74.1
1939 182485   30.494680212  114.532805884   118.8710   1  13   0.0175   0.0160   0.0401   0.0075   0.0031  -0.0133  -0.00   74.3
1939 182486   30.494680220  114.532805889   118.8724   1  13   0.0175   0.0160   0.0401   0.0075   0.0031  -0.0133  -0.00   74.4
1939 182487   30.494680218  114.532805883   118.8691   1  13   0.0175   0.0160   0.0401   0.0075   0.0031  -0.0133  -0.00   74.6
1939 182488   30.494680222  114.532805877   118.8691   1  13   0.0175   0.0160   0.0401   0.0075   0.0031  -0.0133  -0.00   74.5
1939 182489   30.494680220  114.532805885   118.8694   1  13   0.0175   0.0160   0.0401   0.0075   0.0031  -0.0133  -0.00   74.6
1939 182490   30.494680223  114.532805885   118.8699   1  13   0.0175   0.0160   0.0401   0.0075   0.0031  -0.0133  -0.00   74.7
1939 182491   30.494680227  114.532805890   118.8680   1  13   0.0175   0.0160   0.0400   0.0075   0.0031  -0.0133  -0.00   74.7
1939 182492   30.494680225  114.532805886   118.8713   1  13   0.0175   0.0160   0.0400   0.0075   0.0031  -0.0133  -0.00   74.7
1939 182493   30.494680216  114.532805882   118.8720   1  13   0.0175   0.0160   0.0400   0.0075   0.0032  -0.0133  -0.00   74.8
1939 182494   30.494680226  114.532805885   118.8693   1  13   0.0175   0.0160   0.0400   0.0075   0.0031  -0.0133  -0.00   74.9
1939 182495   30.494680212  114.532805891   118.8740   1  13   0.0175   0.0160   0.0400   0.0075   0.0032  -0.0133  -0.00   75.0
1939 182496   30.494680224  114.532805895   118.8704   1  13   0.0175   0.0160   0.0400   0.0075   0.0032  -0.0133  -0.00   75.0
1939 182497   30.494680210  114.532805891   118.8741   1  13   0.0175   0.0160   0.0400   0.0075   0.0032  -0.0133  -0.00   75.1
1939 182498   30.494680217  114.532805890   118.8730   1  13   0.0175   0.0160   0.0400   0.0075   0.0032  -0.0133  -0.00   75.2
1939 182499   30.494680219  114.532805889   118.8734   1  13   0.0175   0.0160   0.0400   0.0075   0.0032  -0.0133  -0.00   75.2
1939 182500   30.494680213  114.532805895   118.8717   1  13   0.0175   0.0160   0.0400   0.0075   0.0032  -0.0133  -0.00   75.1
1939 182501   30.494680226  114.532805896   118.8712   1  13   0.0175   0.0160   0.0400   0.0075   0.0032  -0.0132  -0.00   75.1
1939 182502   30.494680216  114.532805908   118.8709   1  13   0.0175   0.0160   0.0400   0.0075   0.0032  -0.0132  -0.00   75.1
1939 182503   30.494680228  114.532805901   118.8736   1  13   0.0175   0.0160   0.0400   0.0075   0.0032  -0.0132  -0.00   75.2
1939 182504   30.494680216  114.532805908   118.8723   1  13   0.0175   0.0160   0.0400   0.0075   0.0032  -0.0132  -0.00   75.3
1939 182505   30.494680217  114.532805897   118.8727   1  13   0.0175   0.0160   0.0400   0.0075   0.0032  -0.0132  -0.00   75.4
1939 182506   30.494680215  114.532805903   118.8724   1  13   0.0174   0.0160   0.0400   0.0075   0.0032  -0.0132  -0.00   75.5
1939 182507   30.494680219  114.532805899   118.8678   1  13   0.0174   0.0160   0.0400   0.0075   0.0032  -0.0132  -0.00   75.6
1939 182508   30.494680210  114.532805901   118.8717   1  13   0.0175   0.0160   0.0400   0.0075   0.0033  -0.0132  -0.00   75.9
1939 182509   30.494680216  114.532805901   118.8692   1  13   0.0175   0.0160   0.0400   0.0075   0.0032  -0.0132  -0.00   76.1
1939 182510   30.494680224  114.532805890   118.8688   1  13   0.0175   0.0160   0.0400   0.0075   0.0032  -0.0132  -0.00   76.1
1939 182511   30.494680217  114.532805905   118.8694   1  13   0.0175   0.0160   0.0400   0.0075   0.0032  -0.0132  -0.00   76.3
1939 182512   30.494680221  114.532805885   118.8676   1  13   0.0174   0.0160   0.0400   0.0075   0.0033  -0.0132  -0.00   76.6
1939 182513   30.494680216  114.532805888   118.8687   1  13   0.0175   0.0160   0.0400   0.0075   0.0033  -0.0132  -0.00   76.9
1939 182514   30.494680216  114.532805892   118.8659   1  13   0.0174   0.0160   0.0400   0.0075   0.0033  -0.0132  -0.00   77.1
1939 182515   30.494680227  114.532805886   118.8650   1  13   0.0174   0.0160   0.0400   0.0075   0.0033  -0.0132  -0.00   77.3
1939 182516   30.494680221  114.532805894   118.8687   1  13   0.0174   0.0160   0.0400   0.0075   0.0033  -0.0132  -0.00   77.5
1939 182517   30.494680227  114.532805888   118.8675   1  13   0.0174   0.0160   0.0400   0.0075   0.0033  -0.0132  -0.00   77.7
1939 182518   30.494680218  114.532805892   118.8674   1  13   0.0174   0.0160   0.0400   0.0075   0.0033  -0.0132  -0.00   77.7
1939 182519   30.494680235  114.532805897   118.8656   1  13   0.0174   0.0160   0.0400   0.0075   0.0033  -0.0132  -0.00   77.8
1939 182520   30.494680220  114.532805899   118.8662   1  13   0.0174   0.0160   0.0400   0.0075   0.0033  -0.0132  -0.00   77.9
1939 182521   30.494680244  114.532805910   118.8632   1  13   0.0174   0.0160   0.0400   0.0075   0.0033  -0.0132  -0.00   77.9
1939 182522   30.494680211  114.532805902   118.8670   1  13   0.0174   0.0160   0.0400   0.0075   0.0033  -0.0132  -0.00   78.1
1939 182523   30.494680226  114.532805909   118.8637   1  13   0.0174   0.0160   0.0400   0.0074   0.0033  -0.0132  -0.00   78.2
1939 182524   30.494680225  114.532805893   118.8677   1  13   0.0174   0.0160   0.0400   0.0075   0.0033  -0.0131  -0.00   78.4
1939 182525   30.494680210  114.532805893   118.8684   1  13   0.0174   0.0160   0.0400   0.0075   0.0033  -0.0131  -0.00   78.6
1939 182526   30.494680219  114.532805884   118.8698   1  13   0.0174   0.0160   0.0400   0.0075   0.0033  -0.0131  -0.00   78.7
1939 182527   30.494680220  114.532805883   118.8679   1  13   0.0174   0.0160   0.0400   0.0075   0.0033  -0.0131  -0.00   78.9
1939 182528   30.494680207  114.532805881   118.8666   1  13   0.0174   0.0160   0.0400   0.0075   0.0033  -0.0131  -0.00   79.0
1939 182529   30.494680219  114.532805891   118.8673   1  13   0.0174   0.0160   0.0400   0.0075   0.0033  -0.0131  -0.00   79.0
1939 182530   30.494680214  114.532805878   118.8673   1  13   0.0174   0.0160   0.0400   0.0075   0.0033  -0.0131  -0.00   79.2
1939 182531   30.494680228  114.532805891   118.8694   1  13   0.0174   0.0160   0.0400   0.0074   0.0033  -0.0131  -0.00   79.3
1939 182532   30.494680221  114.532805879   118.8677   1  13   0.0174   0.0160   0.0400   0.0075   0.0034  -0.0131  -0.00   79.5
1939 182533   30.494680208  114.532805883   118.8668   1  13   0.0174   0.0160   0.0400   0.0075   0.0034  -0.0131  -0.00   79.6
1939 182534   30.494680213  114.532805884   118.8670   1  13   0.0174   0.0160   0.0400   0.0074   0.0034  -0.0131  -0.00   79.7
1939 182535   30.494680207  114.532805872   118.8688   1  13   0.0174   0.0160   0.0400   0.0074   0.0033  -0.0131  -0.00   79.8
1939 182536   30.494680202  114.532805869   118.8690   1  13   0.0174   0.0160   0.0400   0.0074   0.0034  -0.0131  -0.00   79.9
1939 182537   30.494680206  114.532805878   118.8674   1  13   0.0174   0.0160   0.0400   0.0074   0.0034  -0.0131  -0.00   80.0
1939 182538   30.494680210  114.532805886   118.8694   1  13   0.0174   0.0160   0.0400   0.0075   0.0034  -0.0131  -0.00   80.0
1939 182539   30.494680206  114.532805889   118.8704   1  13   0.0174   0.0160   0.0400   0.0074   0.0034  -0.0131  -0.00   80.0
1939 182540   30.494680214  114.532805899   118.8698   1  13   0.0174   0.0160   0.0400   0.0074   0.0034  -0.0131  -0.00   80.1
1939 182541   30.494680214  114.532805889   118.8680   1  13   0.0174   0.0160   0.0400   0.0074   0.0034  -0.0131  -0.00   80.1
1939 182542   30.494680216  114.532805878   118.8700   1  13   0.0174   0.0160   0.0400   0.0074   0.0034  -0.0131  -0.00   80.3
1939 182543   30.494680218  114.532805883   118.8692   1  13   0.0174   0.0160   0.0400   0.0074   0.0034  -0.0131  -0.00   80.3
1939 182544   30.494680224  114.532805894   118.8690   1  13   0.0174   0.0160   0.0400   0.0074   0.0034  -0.0131  -0.00   80.3
1939 182545   30.494680208  114.532805880   118.8674   1  13   0.0174   0.0160   0.0400   0.0074   0.0034  -0.0131  -0.00   80.4
1939 182546   30.494680206  114.532805869   118.8726   1  13   0.0174   0.0160   0.0400   0.0075   0.0034  -0.0130  -0.00   80.3
1939 182547   30.494680210  114.532805869   118.8689   1  13   0.0174   0.0160   0.0400   0.0074   0.0034  -0.0130  -0.00   80.4
1939 182548   30.494680202  114.532805875   118.8724   1  13   0.0174   0.0160   0.0400   0.0074   0.0034  -0.0130  -0.00   80.6
1939 182549   30.494680211  114.532805872   118.8705   1  13   0.0174   0.0160   0.0400   0.0075   0.0034  -0.0130  -0.00   80.7
1939 182550   30.494680206  114.532805873   118.8679   1  13   0.0174   0.0160   0.0400   0.0074   0.0034  -0.0130  -0.00   80.8
1939 182551   30.494680217  114.532805867   118.8695   1  13   0.0174   0.0160   0.0400   0.0074   0.0034  -0.0130  -0.00   81.0
1939 182552   30.494680221  114.532805879   118.8706   1  13   0.0174   0.0160   0.0400   0.0074   0.0035  -0.0130  -0.00   81.0
1939 182553   30.494680221  114.532805873   118.8714   1  13   0.0174   0.0160   0.0400   0.0074   0.0034  -0.0130  -0.00   81.2
1939 182554   30.494680207  114.532805872   118.8711   1  13   0.0174   0.0160   0.0400   0.0074   0.0034  -0.0130  -0.00   81.2
1939 182555   30.494680209  114.532805875   118.8690   1  13   0.0174   0.0160   0.0400   0.0074   0.0035  -0.0130  -0.00   81.3
1939 182556   30.494680211  114.532805879   118.8708   1  13   0.0174   0.0160   0.0400   0.0074   0.0035  -0.0130  -0.00   81.4
1939 182557   30.494680223  114.532805873   118.8711   1  13   0.0174   0.0160   0.0400   0.0074   0.0035  -0.0130  -0.00   81.5
1939 182558   30.494680204  114.532805875   118.8700   1  13   0.0174   0.0160   0.0400   0.0074   0.0035  -0.0130  -0.00   81.7
1939 182559   30.494680224  114.532805885   118.8707   1  13   0.0174   0.0160   0.0400   0.0074   0.0035  -0.0130  -0.00   81.8
1939 182560   30.494680220  114.532805886   118.8677   1  13   0.0174   0.0160   0.0400   0.0074   0.0035  -0.0130  -0.00   81.9
1939 182561   30.494680231  114.532805889   118.8703   1  13   0.0174   0.0160   0.0400   0.0074   0.0035  -0.0130  -0.00   82.1
1939 182562   30.494680215  114.532805875   118.8709   1  13   0.0174   0.0160   0.0400   0.0074   0.0035  -0.0130  -0.00   82.3
1939 182563   30.494680233  114.532805878   118.8694   1  13   0.0174   0.0160   0.0400   0.0074   0.0035  -0.0130  -0.00   82.4
1939 182564   30.494680213  114.532805883   118.8719   1  13   0.0174   0.0160   0.0400   0.0074   0.0035  -0.0130  -0.00   82.6
